[
    {
        "name": "Airedale Property Trust",
        "fsdid": "FSD0022854",
        "free": true,
        "referral": false,
        "description": "APT is helping address local and central government requirements for affordable housing, residential aged care and specialised housing for other at risk groups, including people living with disabilities. APT is providing social housing in partnership with Ministry of Social Development. ",
        "details": "Monday - Friday 9am-5pm\nSome charges may apply.\nNo referral required.",
        "hours": "Monday - Friday 9:00am-5:00pm",
        "address": "Level 7, 385 Queen Street, Auckland 1010",
        "street": "385 Queen Street",
        "city": "Auckland",
        "postcode": "1010",
        "country": "New Zealand",
        "phone": "(09) 302 8169",
        "email": "rateneshs@apt.org.nz",
        "website": "http://www.airedaleproperty.org.nz/"
    },
    {
        "name": "De Paul House",
        "fsdid": "FSD0016947",
        "free": true,
        "referral": false,
        "description": "To provide temporary accommodation for homeless families and support vulnerable families in the community. Please see service detail for more information.",
        "details": "9 - 5pm Monday to Friday Some charges may apply. Referral may apply.",
        "hours": "Monday - Friday 9:00am-5:00pm",
        "address": "92 - 96 Onewa Road, Northcote, North Shore City 0627",
        "street": "92 Onewa Road",
        "city": "North Shore City",
        "postcode": "0627",
        "country": "New Zealand",
        "phone": "(09) 480 5959",
        "email": "jan@depaulhouse.org.nz",
        "website": "http://www.depaulhouse.org.nz"
    },
    {
        "name": "Ranui Baptist Community Care",
        "fsdid": "FSD0019697",
        "free": true,
        "referral": false,
        "description": "Goals of the Trust are: •\tTo provide leadership, direction and resources which will enable the Church to minister to its local community by seeking to meet social, emotional, physical, spiritual and educational needs of the people of its local co...",
        "hours": "Monday - Friday 9:00am-5:00pm",
        "details": "Monday to Friday 9:00am to 5:00pm.\nFinancial capability availability: AUCKLAND WEST ONLY\nSome charges may apply.\nNo referral required.",
        "address": "464 Swanson Road, Ranui, Auckland 0655",
        "street": "464 Swanson Road",
        "city": "Auckland",
        "postcode": "0655",
        "country": "New Zealand",
        "phone": "(09) 832 5961 Budgeting, (027) 486 7950 Community Support",
        "email": "creh@xtra.co.nz",
        "website": "http://www.careranui.org.nz"
    },
    {
        "name": "South Auckland Family Refuge Inc.",
        "fsdid": "FSD0007651",
        "free": true,
        "referral": false,
        "description": "Women's Refuges work to raise public awareness of violence against women and children, promoting the prevention and elimination of violence, and the rights of women and children to care and protection.",
        "hours": "Monday - Friday 9:30am-4:30pm",
        "details": "Monday - Friday 9.30 - 4.30pm.\nSome charges may apply.\nNo referral required.\nApproved Family Violence Provider",
        "address": "",
        "street": "",
        "city": "",
        "postcode": "",
        "country": "New Zealand",
        "phone": "(0800) 733 843, (09) 276 8868",
        "email": "peppertreehouse@xtra.co.nz",
        "website": "http://www.womensrefuge.org.nz"
    },
    {
        "name": "Te Manawanui Charitable Trust",
        "description": "",
        "free": true,
        "fsdid": "FSD0003676",
        "referral": false,
        "details": "9am - 5pm Mon - Fri\nOutside of these hours 24/7\nmob: 021 2804000\nSome charges may apply.\nNo referral required.",
        "hours": "Monday - Friday 9:00am-5:00pm",
        "address": "",
        "street": "",
        "city": "",
        "postcode": "",
        "country": "New Zealand",
        "phone": "(09) 624 3906, (021) 280 4000",
        "email": "te.manawanui@xtra.co.nz",
        "website": ""
    },
    {
        "name": "The Salvation Army - Royal Oak Community Ministries",
        "free": true,
        "fsdid": "FSD0003434",
        "referral": false,
        "description": "We provide welfare support to needy families, budgeting advice, transitional housing, referral resources, Ezee meals. Community Social workers and Youth workers operate from this centre. Referrals for Transitional Housing Programme can be accep...",
        "details": "9:15am-12pm, 1-3pm Monday, Tuesday, Thursday Friday. Wednesdays 10-12 and 1-3pm.\nSome charges may apply.\nReferral may apply.",
        "hours": "9:15am-12pm & 1-3pm M, T, T & F. Wednesdays 10-12 and 1-3pm.",
        "address": "691A Mt Albert Road, Royal Oak, Auckland",
        "street": "691A Mt Albert Road",
        "city": "Auckland",
        "postcode": "1023",
        "country": "New Zealand",
        "phone": "(09) 639 1181",
        "email": "aucklandcity_cm@nzf.salvationarmy.org",
        "website": "http://www.salvationarmy.org.nz/"
    },
    {
        "name": "The Salvation Army - Epsom Lodge",
        "fsdid": "FSD0003336",
        "free": true,
        "referral": false,
        "description": "A Salvation Army Accommodation Service for men & women, providing a program of rehabilitation for unemployed, drug abusers, ex psychiatric patients, prison discharges and those unable to live independently in the community. Formal referral and ass...",
        "hours": "24 Hours",
        "details": "24 Hours\nSome charges may apply.\nReferral may apply.",
        "address": "18 Margot Street, Epsom, Auckland 1051",
        "street": "18 Margot Street",
        "city": "Auckland",
        "postcode": "1051",
        "country": "New Zealand",
        "phone": "(09) 524 0252, (09) 524 7379",
        "email": "epsom_lodge@nzf.salvationarmy.org",
        "website": "http://www.salvationarmy.org.nz/"
    },
    {
        "name": "Auckland City Mission",
        "free": true,
        "referral": false,
        "description": "Whether it’s a temporary set-back or a long-term issue that needs expert attention, the Auckland City Mission is here to help. We are often the last resort for people who have nowhere else to turn.",
        "hours": "7 Days 8:00am - 6:00pm",
        "details": "7days 8:00 - 6:00pm.\nSome charges may apply.\nNo referral required.\nApproved Family Violence Provider",
        "address": " 140 Hobson St, Auckland, 1010",
        "street": "140 Hobson Street",
        "city": "Auckland",
        "postcode": "1010",
        "country": "New Zealand",
        "phone": "09 303 9200",
        "fax": "09 379 5657, 09 303 9305", 
        "email": "info@aucklandcitymission.org.nz",
        "website": "https://www.aucklandcitymission.org.nz/"
    },
    {
        "footer": "People in immediate need of somewhere to stay should call Work and Income on 0800 559 009 or call into their nearest Ministry of Social Development service centre."
    }
]